[
  {"id":"la_store_001","name":"Los Angeles, CA Store 1","address":"101 Sunset Blvd, Los Angeles, CA","latitude":34.0525,"longitude":-118.24345,"priority":1,"estimated_service_time":10,"packages":1,"weight_kg":2.2},
  {"id":"la_store_002","name":"Los Angeles, CA Store 2","address":"102 Sunset Blvd, Los Angeles, CA","latitude":34.0528,"longitude":-118.2432,"priority":2,"estimated_service_time":15,"packages":2,"weight_kg":4.4},
  {"id":"la_store_003","name":"Los Angeles, CA Store 3","address":"103 Sunset Blvd, Los Angeles, CA","latitude":34.0531,"longitude":-118.24295,"priority":3,"estimated_service_time":20,"packages":3,"weight_kg":6.6},
  {"id":"la_store_004","name":"Los Angeles, CA Store 4","address":"104 Sunset Blvd, Los Angeles, CA","latitude":34.0534,"longitude":-118.2427,"priority":1,"estimated_service_time":25,"packages":4,"weight_kg":8.8},
  {"id":"la_store_005","name":"Los Angeles, CA Store 5","address":"105 Sunset Blvd, Los Angeles, CA","latitude":34.0537,"longitude":-118.24245,"priority":2,"estimated_service_time":10,"packages":5,"weight_kg":11.0},
  {"id":"la_store_006","name":"Los Angeles, CA Store 6","address":"106 Sunset Blvd, Los Angeles, CA","latitude":34.054,"longitude":-118.2422,"priority":3,"estimated_service_time":15,"packages":1,"weight_kg":2.2},
  {"id":"la_store_007","name":"Los Angeles, CA Store 7","address":"107 Sunset Blvd, Los Angeles, CA","latitude":34.0543,"longitude":-118.24195,"priority":1,"estimated_service_time":20,"packages":2,"weight_kg":4.4},
  {"id":"la_store_008","name":"Los Angeles, CA Store 8","address":"108 Sunset Blvd, Los Angeles, CA","latitude":34.0546,"longitude":-118.2417,"priority":2,"estimated_service_time":25,"packages":3,"weight_kg":6.6},
  {"id":"la_store_009","name":"Los Angeles, CA Store 9","address":"109 Sunset Blvd, Los Angeles, CA","latitude":34.0549,"longitude":-118.24145,"priority":3,"estimated_service_time":10,"packages":4,"weight_kg":8.8},
  {"id":"la_store_010","name":"Los Angeles, CA Store 10","address":"110 Sunset Blvd, Los Angeles, CA","latitude":34.0552,"longitude":-118.2412,"priority":1,"estimated_service_time":15,"packages":5,"weight_kg":11.0},
  {"id":"la_store_011","name":"Los Angeles, CA Store 11","address":"111 Sunset Blvd, Los Angeles, CA","latitude":34.0555,"longitude":-118.24095,"priority":2,"estimated_service_time":20,"packages":1,"weight_kg":2.2},
  {"id":"la_store_012","name":"Los Angeles, CA Store 12","address":"112 Sunset Blvd, Los Angeles, CA","latitude":34.0558,"longitude":-118.2407,"priority":3,"estimated_service_time":25,"packages":2,"weight_kg":4.4},
  {"id":"la_store_013","name":"Los Angeles, CA Store 13","address":"113 Sunset Blvd, Los Angeles, CA","latitude":34.0561,"longitude":-118.24045,"priority":1,"estimated_service_time":10,"packages":3,"weight_kg":6.6},
  {"id":"la_store_014","name":"Los Angeles, CA Store 14","address":"114 Sunset Blvd, Los Angeles, CA","latitude":34.0564,"longitude":-118.2402,"priority":2,"estimated_service_time":15,"packages":4,"weight_kg":8.8},
  {"id":"la_store_015","name":"Los Angeles, CA Store 15","address":"115 Sunset Blvd, Los Angeles, CA","latitude":34.0567,"longitude":-118.23995,"priority":3,"estimated_service_time":20,"packages":5,"weight_kg":11.0},
  {"id":"la_store_016","name":"Los Angeles, CA Store 16","address":"116 Sunset Blvd, Los Angeles, CA","latitude":34.057,"longitude":-118.2397,"priority":1,"estimated_service_time":25,"packages":1,"weight_kg":2.2},
  {"id":"la_store_017","name":"Los Angeles, CA Store 17","address":"117 Sunset Blvd, Los Angeles, CA","latitude":34.0573,"longitude":-118.23945,"priority":2,"estimated_service_time":10,"packages":2,"weight_kg":4.4},
  {"id":"la_store_018","name":"Los Angeles, CA Store 18","address":"118 Sunset Blvd, Los Angeles, CA","latitude":34.0576,"longitude":-118.2392,"priority":3,"estimated_service_time":15,"packages":3,"weight_kg":6.6},
  {"id":"la_store_019","name":"Los Angeles, CA Store 19","address":"119 Sunset Blvd, Los Angeles, CA","latitude":34.0579,"longitude":-118.23895,"priority":1,"estimated_service_time":20,"packages":4,"weight_kg":8.8},
  {"id":"la_store_020","name":"Los Angeles, CA Store 20","address":"120 Sunset Blvd, Los Angeles, CA","latitude":34.0582,"longitude":-118.2387,"priority":2,"estimated_service_time":25,"packages":5,"weight_kg":11.0},
  {"id":"la_store_021","name":"Los Angeles, CA Store 21","address":"121 Sunset Blvd, Los Angeles, CA","latitude":34.0585,"longitude":-118.23845,"priority":3,"estimated_service_time":10,"packages":1,"weight_kg":2.2},
  {"id":"la_store_022","name":"Los Angeles, CA Store 22","address":"122 Sunset Blvd, Los Angeles, CA","latitude":34.0588,"longitude":-118.2382,"priority":1,"estimated_service_time":15,"packages":2,"weight_kg":4.4},
  {"id":"la_store_023","name":"Los Angeles, CA Store 23","address":"123 Sunset Blvd, Los Angeles, CA","latitude":34.0591,"longitude":-118.23795,"priority":2,"estimated_service_time":20,"packages":3,"weight_kg":6.6},
  {"id":"la_store_024","name":"Los Angeles, CA Store 24","address":"124 Sunset Blvd, Los Angeles, CA","latitude":34.0594,"longitude":-118.2377,"priority":3,"estimated_service_time":25,"packages":4,"weight_kg":8.8},
  {"id":"la_store_025","name":"Los Angeles, CA Store 25","address":"125 Sunset Blvd, Los Angeles, CA","latitude":34.0597,"longitude":-118.23745,"priority":1,"estimated_service_time":10,"packages":5,"weight_kg":11.0},
  {"id":"la_store_026","name":"Los Angeles, CA Store 26","address":"126 Sunset Blvd, Los Angeles, CA","latitude":34.06,"longitude":-118.2372,"priority":2,"estimated_service_time":15,"packages":1,"weight_kg":2.2},
  {"id":"la_store_027","name":"Los Angeles, CA Store 27","address":"127 Sunset Blvd, Los Angeles, CA","latitude":34.0603,"longitude":-118.23695,"priority":3,"estimated_service_time":20,"packages":2,"weight_kg":4.4},
  {"id":"la_store_028","name":"Los Angeles, CA Store 28","address":"128 Sunset Blvd, Los Angeles, CA","latitude":34.0606,"longitude":-118.2367,"priority":1,"estimated_service_time":25,"packages":3,"weight_kg":6.6},
  {"id":"la_store_029","name":"Los Angeles, CA Store 29","address":"129 Sunset Blvd, Los Angeles, CA","latitude":34.0609,"longitude":-118.23645,"priority":2,"estimated_service_time":10,"packages":4,"weight_kg":8.8},
  {"id":"la_store_030","name":"Los Angeles, CA Store 30","address":"130 Sunset Blvd, Los Angeles, CA","latitude":34.0612,"longitude":-118.2362,"priority":3,"estimated_service_time":15,"packages":5,"weight_kg":11.0},
  {"id":"la_store_031","name":"Los Angeles, CA Store 31","address":"131 Sunset Blvd, Los Angeles, CA","latitude":34.0615,"longitude":-118.23595,"priority":1,"estimated_service_time":20,"packages":1,"weight_kg":2.2},
  {"id":"la_store_032","name":"Los Angeles, CA Store 32","address":"132 Sunset Blvd, Los Angeles, CA","latitude":34.0618,"longitude":-118.2357,"priority":2,"estimated_service_time":25,"packages":2,"weight_kg":4.4},
  {"id":"la_store_033","name":"Los Angeles, CA Store 33","address":"133 Sunset Blvd, Los Angeles, CA","latitude":34.0621,"longitude":-118.23545,"priority":3,"estimated_service_time":10,"packages":3,"weight_kg":6.6},
  {"id":"la_store_034","name":"Los Angeles, CA Store 34","address":"134 Sunset Blvd, Los Angeles, CA","latitude":34.0624,"longitude":-118.2352,"priority":1,"estimated_service_time":15,"packages":4,"weight_kg":8.8},
  {"id":"la_store_035","name":"Los Angeles, CA Store 35","address":"135 Sunset Blvd, Los Angeles, CA","latitude":34.0627,"longitude":-118.23495,"priority":2,"estimated_service_time":20,"packages":5,"weight_kg":11.0},
  {"id":"la_store_036","name":"Los Angeles, CA Store 36","address":"136 Sunset Blvd, Los Angeles, CA","latitude":34.063,"longitude":-118.2347,"priority":3,"estimated_service_time":25,"packages":1,"weight_kg":2.2},
  {"id":"la_store_037","name":"Los Angeles, CA Store 37","address":"137 Sunset Blvd, Los Angeles, CA","latitude":34.0633,"longitude":-118.23445,"priority":1,"estimated_service_time":10,"packages":2,"weight_kg":4.4},
  {"id":"la_store_038","name":"Los Angeles, CA Store 38","address":"138 Sunset Blvd, Los Angeles, CA","latitude":34.0636,"longitude":-118.2342,"priority":2,"estimated_service_time":15,"packages":3,"weight_kg":6.6},
  {"id":"la_store_039","name":"Los Angeles, CA Store 39","address":"139 Sunset Blvd, Los Angeles, CA","latitude":34.0639,"longitude":-118.23395,"priority":3,"estimated_service_time":20,"packages":4,"weight_kg":8.8},
  {"id":"la_store_040","name":"Los Angeles, CA Store 40","address":"140 Sunset Blvd, Los Angeles, CA","latitude":34.0642,"longitude":-118.2337,"priority":1,"estimated_service_time":25,"packages":5,"weight_kg":11.0},
  {"id":"la_store_041","name":"Los Angeles, CA Store 41","address":"141 Sunset Blvd, Los Angeles, CA","latitude":34.0645,"longitude":-118.23345,"priority":2,"estimated_service_time":10,"packages":1,"weight_kg":2.2},
  {"id":"la_store_042","name":"Los Angeles, CA Store 42","address":"142 Sunset Blvd, Los Angeles, CA","latitude":34.0648,"longitude":-118.2332,"priority":3,"estimated_service_time":15,"packages":2,"weight_kg":4.4},
  {"id":"la_store_043","name":"Los Angeles, CA Store 43","address":"143 Sunset Blvd, Los Angeles, CA","latitude":34.0651,"longitude":-118.23295,"priority":1,"estimated_service_time":20,"packages":3,"weight_kg":6.6},
  {"id":"la_store_044","name":"Los Angeles, CA Store 44","address":"144 Sunset Blvd, Los Angeles, CA","latitude":34.0654,"longitude":-118.2327,"priority":2,"estimated_service_time":25,"packages":4,"weight_kg":8.8},
  {"id":"la_store_045","name":"Los Angeles, CA Store 45","address":"145 Sunset Blvd, Los Angeles, CA","latitude":34.0657,"longitude":-118.23245,"priority":3,"estimated_service_time":10,"packages":5,"weight_kg":11.0},
  {"id":"la_store_046","name":"Los Angeles, CA Store 46","address":"146 Sunset Blvd, Los Angeles, CA","latitude":34.066,"longitude":-118.2322,"priority":1,"estimated_service_time":15,"packages":1,"weight_kg":2.2},
  {"id":"la_store_047","name":"Los Angeles, CA Store 47","address":"147 Sunset Blvd, Los Angeles, CA","latitude":34.0663,"longitude":-118.23195,"priority":2,"estimated_service_time":20,"packages":2,"weight_kg":4.4},
  {"id":"la_store_048","name":"Los Angeles, CA Store 48","address":"148 Sunset Blvd, Los Angeles, CA","latitude":34.0666,"longitude":-118.2317,"priority":3,"estimated_service_time":25,"packages":3,"weight_kg":6.6},
  {"id":"la_store_049","name":"Los Angeles, CA Store 49","address":"149 Sunset Blvd, Los Angeles, CA","latitude":34.0669,"longitude":-118.23145,"priority":1,"estimated_service_time":10,"packages":4,"weight_kg":8.8},
  {"id":"la_store_050","name":"Los Angeles, CA Store 50","address":"150 Sunset Blvd, Los Angeles, CA","latitude":34.0672,"longitude":-118.2312,"priority":2,"estimated_service_time":15,"packages":5,"weight_kg":11.0},
  {"id":"la_store_051","name":"Los Angeles, CA Store 51","address":"151 Sunset Blvd, Los Angeles, CA","latitude":34.0675,"longitude":-118.23095,"priority":3,"estimated_service_time":20,"packages":1,"weight_kg":2.2},
  {"id":"la_store_052","name":"Los Angeles, CA Store 52","address":"152 Sunset Blvd, Los Angeles, CA","latitude":34.0678,"longitude":-118.2307,"priority":1,"estimated_service_time":25,"packages":2,"weight_kg":4.4},
  {"id":"la_store_053","name":"Los Angeles, CA Store 53","address":"153 Sunset Blvd, Los Angeles, CA","latitude":34.0681,"longitude":-118.23045,"priority":2,"estimated_service_time":10,"packages":3,"weight_kg":6.6},
  {"id":"la_store_054","name":"Los Angeles, CA Store 54","address":"154 Sunset Blvd, Los Angeles, CA","latitude":34.0684,"longitude":-118.2302,"priority":3,"estimated_service_time":15,"packages":4,"weight_kg":8.8},
  {"id":"la_store_055","name":"Los Angeles, CA Store 55","address":"155 Sunset Blvd, Los Angeles, CA","latitude":34.0687,"longitude":-118.22995,"priority":1,"estimated_service_time":20,"packages":5,"weight_kg":11.0},
  {"id":"la_store_056","name":"Los Angeles, CA Store 56","address":"156 Sunset Blvd, Los Angeles, CA","latitude":34.069,"longitude":-118.2297,"priority":2,"estimated_service_time":25,"packages":1,"weight_kg":2.2},
  {"id":"la_store_057","name":"Los Angeles, CA Store 57","address":"157 Sunset Blvd, Los Angeles, CA","latitude":34.0693,"longitude":-118.22945,"priority":3,"estimated_service_time":10,"packages":2,"weight_kg":4.4},
  {"id":"la_store_058","name":"Los Angeles, CA Store 58","address":"158 Sunset Blvd, Los Angeles, CA","latitude":34.0696,"longitude":-118.2292,"priority":1,"estimated_service_time":15,"packages":3,"weight_kg":6.6},
  {"id":"la_store_059","name":"Los Angeles, CA Store 59","address":"159 Sunset Blvd, Los Angeles, CA","latitude":34.0699,"longitude":-118.22895,"priority":2,"estimated_service_time":20,"packages":4,"weight_kg":8.8},
  {"id":"la_store_060","name":"Los Angeles, CA Store 60","address":"160 Sunset Blvd, Los Angeles, CA","latitude":34.0702,"longitude":-118.2287,"priority":3,"estimated_service_time":25,"packages":5,"weight_kg":11.0},
  {"id":"la_store_061","name":"Los Angeles, CA Store 61","address":"161 Sunset Blvd, Los Angeles, CA","latitude":34.0705,"longitude":-118.22845,"priority":1,"estimated_service_time":10,"packages":1,"weight_kg":2.2},
  {"id":"la_store_062","name":"Los Angeles, CA Store 62","address":"162 Sunset Blvd, Los Angeles, CA","latitude":34.0708,"longitude":-118.2282,"priority":2,"estimated_service_time":15,"packages":2,"weight_kg":4.4},
  {"id":"la_store_063","name":"Los Angeles, CA Store 63","address":"163 Sunset Blvd, Los Angeles, CA","latitude":34.0711,"longitude":-118.22795,"priority":3,"estimated_service_time":20,"packages":3,"weight_kg":6.6},
  {"id":"la_store_064","name":"Los Angeles, CA Store 64","address":"164 Sunset Blvd, Los Angeles, CA","latitude":34.0714,"longitude":-118.2277,"priority":1,"estimated_service_time":25,"packages":4,"weight_kg":8.8},
  {"id":"la_store_065","name":"Los Angeles, CA Store 65","address":"165 Sunset Blvd, Los Angeles, CA","latitude":34.0717,"longitude":-118.22745,"priority":2,"estimated_service_time":10,"packages":5,"weight_kg":11.0},
  {"id":"la_store_066","name":"Los Angeles, CA Store 66","address":"166 Sunset Blvd, Los Angeles, CA","latitude":34.072,"longitude":-118.2272,"priority":3,"estimated_service_time":15,"packages":1,"weight_kg":2.2},
  {"id":"la_store_067","name":"Los Angeles, CA Store 67","address":"167 Sunset Blvd, Los Angeles, CA","latitude":34.0723,"longitude":-118.22695,"priority":1,"estimated_service_time":20,"packages":2,"weight_kg":4.4},
  {"id":"la_store_068","name":"Los Angeles, CA Store 68","address":"168 Sunset Blvd, Los Angeles, CA","latitude":34.0726,"longitude":-118.2267,"priority":2,"estimated_service_time":25,"packages":3,"weight_kg":6.6},
  {"id":"la_store_069","name":"Los Angeles, CA Store 69","address":"169 Sunset Blvd, Los Angeles, CA","latitude":34.0729,"longitude":-118.22645,"priority":3,"estimated_service_time":10,"packages":4,"weight_kg":8.8},
  {"id":"la_store_070","name":"Los Angeles, CA Store 70","address":"170 Sunset Blvd, Los Angeles, CA","latitude":34.0732,"longitude":-118.2262,"priority":1,"estimated_service_time":15,"packages":5,"weight_kg":11.0},
  {"id":"la_store_071","name":"Los Angeles, CA Store 71","address":"171 Sunset Blvd, Los Angeles, CA","latitude":34.0735,"longitude":-118.22595,"priority":2,"estimated_service_time":20,"packages":1,"weight_kg":2.2},
  {"id":"la_store_072","name":"Los Angeles, CA Store 72","address":"172 Sunset Blvd, Los Angeles, CA","latitude":34.0738,"longitude":-118.2257,"priority":3,"estimated_service_time":25,"packages":2,"weight_kg":4.4},
  {"id":"la_store_073","name":"Los Angeles, CA Store 73","address":"173 Sunset Blvd, Los Angeles, CA","latitude":34.0741,"longitude":-118.22545,"priority":1,"estimated_service_time":10,"packages":3,"weight_kg":6.6},
  {"id":"la_store_074","name":"Los Angeles, CA Store 74","address":"174 Sunset Blvd, Los Angeles, CA","latitude":34.0744,"longitude":-118.2252,"priority":2,"estimated_service_time":15,"packages":4,"weight_kg":8.8},
  {"id":"la_store_075","name":"Los Angeles, CA Store 75","address":"175 Sunset Blvd, Los Angeles, CA","latitude":34.0747,"longitude":-118.22495,"priority":3,"estimated_service_time":20,"packages":5,"weight_kg":11.0},
  {"id":"la_store_076","name":"Los Angeles, CA Store 76","address":"176 Sunset Blvd, Los Angeles, CA","latitude":34.075,"longitude":-118.2247,"priority":1,"estimated_service_time":25,"packages":1,"weight_kg":2.2},
  {"id":"la_store_077","name":"Los Angeles, CA Store 77","address":"177 Sunset Blvd, Los Angeles, CA","latitude":34.0753,"longitude":-118.22445,"priority":2,"estimated_service_time":10,"packages":2,"weight_kg":4.4},
  {"id":"la_store_078","name":"Los Angeles, CA Store 78","address":"178 Sunset Blvd, Los Angeles, CA","latitude":34.0756,"longitude":-118.2242,"priority":3,"estimated_service_time":15,"packages":3,"weight_kg":6.6},
  {"id":"la_store_079","name":"Los Angeles, CA Store 79","address":"179 Sunset Blvd, Los Angeles, CA","latitude":34.0759,"longitude":-118.22395,"priority":1,"estimated_service_time":20,"packages":4,"weight_kg":8.8},
  {"id":"la_store_080","name":"Los Angeles, CA Store 80","address":"180 Sunset Blvd, Los Angeles, CA","latitude":34.0762,"longitude":-118.2237,"priority":2,"estimated_service_time":25,"packages":5,"weight_kg":11.0},
  {"id":"la_store_081","name":"Los Angeles, CA Store 81","address":"181 Sunset Blvd, Los Angeles, CA","latitude":34.0765,"longitude":-118.22345,"priority":3,"estimated_service_time":10,"packages":1,"weight_kg":2.2},
  {"id":"la_store_082","name":"Los Angeles, CA Store 82","address":"182 Sunset Blvd, Los Angeles, CA","latitude":34.0768,"longitude":-118.2232,"priority":1,"estimated_service_time":15,"packages":2,"weight_kg":4.4},
  {"id":"la_store_083","name":"Los Angeles, CA Store 83","address":"183 Sunset Blvd, Los Angeles, CA","latitude":34.0771,"longitude":-118.22295,"priority":2,"estimated_service_time":20,"packages":3,"weight_kg":6.6},
  {"id":"la_store_084","name":"Los Angeles, CA Store 84","address":"184 Sunset Blvd, Los Angeles, CA","latitude":34.0774,"longitude":-118.2227,"priority":3,"estimated_service_time":25,"packages":4,"weight_kg":8.8},
  {"id":"la_store_085","name":"Los Angeles, CA Store 85","address":"185 Sunset Blvd, Los Angeles, CA","latitude":34.0777,"longitude":-118.22245,"priority":1,"estimated_service_time":10,"packages":5,"weight_kg":11.0},
  {"id":"la_store_086","name":"Los Angeles, CA Store 86","address":"186 Sunset Blvd, Los Angeles, CA","latitude":34.078,"longitude":-118.2222,"priority":2,"estimated_service_time":15,"packages":1,"weight_kg":2.2},
  {"id":"la_store_087","name":"Los Angeles, CA Store 87","address":"187 Sunset Blvd, Los Angeles, CA","latitude":34.0783,"longitude":-118.22195,"priority":3,"estimated_service_time":20,"packages":2,"weight_kg":4.4},
  {"id":"la_store_088","name":"Los Angeles, CA Store 88","address":"188 Sunset Blvd, Los Angeles, CA","latitude":34.0786,"longitude":-118.2217,"priority":1,"estimated_service_time":25,"packages":3,"weight_kg":6.6},
  {"id":"la_store_089","name":"Los Angeles, CA Store 89","address":"189 Sunset Blvd, Los Angeles, CA","latitude":34.0789,"longitude":-118.22145,"priority":2,"estimated_service_time":10,"packages":4,"weight_kg":8.8},
  {"id":"la_store_090","name":"Los Angeles, CA Store 90","address":"190 Sunset Blvd, Los Angeles, CA","latitude":34.0792,"longitude":-118.2212,"priority":3,"estimated_service_time":15,"packages":5,"weight_kg":11.0},
  {"id":"la_store_091","name":"Los Angeles, CA Store 91","address":"191 Sunset Blvd, Los Angeles, CA","latitude":34.0795,"longitude":-118.22095,"priority":1,"estimated_service_time":20,"packages":1,"weight_kg":2.2},
  {"id":"la_store_092","name":"Los Angeles, CA Store 92","address":"192 Sunset Blvd, Los Angeles, CA","latitude":34.0798,"longitude":-118.2207,"priority":2,"estimated_service_time":25,"packages":2,"weight_kg":4.4},
  {"id":"la_store_093","name":"Los Angeles, CA Store 93","address":"193 Sunset Blvd, Los Angeles, CA","latitude":34.0801,"longitude":-118.22045,"priority":3,"estimated_service_time":10,"packages":3,"weight_kg":6.6},
  {"id":"la_store_094","name":"Los Angeles, CA Store 94","address":"194 Sunset Blvd, Los Angeles, CA","latitude":34.0804,"longitude":-118.2202,"priority":1,"estimated_service_time":15,"packages":4,"weight_kg":8.8},
  {"id":"la_store_095","name":"Los Angeles, CA Store 95","address":"195 Sunset Blvd, Los Angeles, CA","latitude":34.0807,"longitude":-118.21995,"priority":2,"estimated_service_time":20,"packages":5,"weight_kg":11.0},
  {"id":"la_store_096","name":"Los Angeles, CA Store 96","address":"196 Sunset Blvd, Los Angeles, CA","latitude":34.081,"longitude":-118.2197,"priority":3,"estimated_service_time":25,"packages":1,"weight_kg":2.2},
  {"id":"la_store_097","name":"Los Angeles, CA Store 97","address":"197 Sunset Blvd, Los Angeles, CA","latitude":34.0813,"longitude":-118.21945,"priority":1,"estimated_service_time":10,"packages":2,"weight_kg":4.4},
  {"id":"la_store_098","name":"Los Angeles, CA Store 98","address":"198 Sunset Blvd, Los Angeles, CA","latitude":34.0816,"longitude":-118.2192,"priority":2,"estimated_service_time":15,"packages":3,"weight_kg":6.6},
  {"id":"la_store_099","name":"Los Angeles, CA Store 99","address":"199 Sunset Blvd, Los Angeles, CA","latitude":34.0819,"longitude":-118.21895,"priority":3,"estimated_service_time":20,"packages":4,"weight_kg":8.8},
  {"id":"la_store_100","name":"Los Angeles, CA Store 100","address":"200 Sunset Blvd, Los Angeles, CA","latitude":34.0822,"longitude":-118.2187,"priority":1,"estimated_service_time":25,"packages":5,"weight_kg":11.0}
]

