[
  {"id":"nyc_store_001","name":"New York, NY Store 1","address":"101 Broadway, New York, NY","latitude":40.7132,"longitude":-74.00635,"priority":1,"estimated_service_time":10,"packages":1,"weight_kg":2.5},
  {"id":"nyc_store_002","name":"New York, NY Store 2","address":"102 Broadway, New York, NY","latitude":40.7136,"longitude":-74.0067,"priority":2,"estimated_service_time":15,"packages":2,"weight_kg":5.0},
  {"id":"nyc_store_003","name":"New York, NY Store 3","address":"103 Broadway, New York, NY","latitude":40.714,"longitude":-74.00705,"priority":3,"estimated_service_time":20,"packages":3,"weight_kg":7.5},
  {"id":"nyc_store_004","name":"New York, NY Store 4","address":"104 Broadway, New York, NY","latitude":40.7144,"longitude":-74.0074,"priority":1,"estimated_service_time":25,"packages":4,"weight_kg":10.0},
  {"id":"nyc_store_005","name":"New York, NY Store 5","address":"105 Broadway, New York, NY","latitude":40.7148,"longitude":-74.00775,"priority":2,"estimated_service_time":10,"packages":5,"weight_kg":12.5},
  {"id":"nyc_store_006","name":"New York, NY Store 6","address":"106 Broadway, New York, NY","latitude":40.7152,"longitude":-74.0081,"priority":3,"estimated_service_time":15,"packages":1,"weight_kg":2.5},
  {"id":"nyc_store_007","name":"New York, NY Store 7","address":"107 Broadway, New York, NY","latitude":40.7156,"longitude":-74.00845,"priority":1,"estimated_service_time":20,"packages":2,"weight_kg":5.0},
  {"id":"nyc_store_008","name":"New York, NY Store 8","address":"108 Broadway, New York, NY","latitude":40.716,"longitude":-74.0088,"priority":2,"estimated_service_time":25,"packages":3,"weight_kg":7.5},
  {"id":"nyc_store_009","name":"New York, NY Store 9","address":"109 Broadway, New York, NY","latitude":40.7164,"longitude":-74.00915,"priority":3,"estimated_service_time":10,"packages":4,"weight_kg":10.0},
  {"id":"nyc_store_010","name":"New York, NY Store 10","address":"110 Broadway, New York, NY","latitude":40.7168,"longitude":-74.0095,"priority":1,"estimated_service_time":15,"packages":5,"weight_kg":12.5},
  {"id":"nyc_store_011","name":"New York, NY Store 11","address":"111 Broadway, New York, NY","latitude":40.7172,"longitude":-74.00985,"priority":2,"estimated_service_time":20,"packages":1,"weight_kg":2.5},
  {"id":"nyc_store_012","name":"New York, NY Store 12","address":"112 Broadway, New York, NY","latitude":40.7176,"longitude":-74.0102,"priority":3,"estimated_service_time":25,"packages":2,"weight_kg":5.0},
  {"id":"nyc_store_013","name":"New York, NY Store 13","address":"113 Broadway, New York, NY","latitude":40.718,"longitude":-74.01055,"priority":1,"estimated_service_time":10,"packages":3,"weight_kg":7.5},
  {"id":"nyc_store_014","name":"New York, NY Store 14","address":"114 Broadway, New York, NY","latitude":40.7184,"longitude":-74.0109,"priority":2,"estimated_service_time":15,"packages":4,"weight_kg":10.0},
  {"id":"nyc_store_015","name":"New York, NY Store 15","address":"115 Broadway, New York, NY","latitude":40.7188,"longitude":-74.01125,"priority":3,"estimated_service_time":20,"packages":5,"weight_kg":12.5},
  {"id":"nyc_store_016","name":"New York, NY Store 16","address":"116 Broadway, New York, NY","latitude":40.7192,"longitude":-74.0116,"priority":1,"estimated_service_time":25,"packages":1,"weight_kg":2.5},
  {"id":"nyc_store_017","name":"New York, NY Store 17","address":"117 Broadway, New York, NY","latitude":40.7196,"longitude":-74.01195,"priority":2,"estimated_service_time":10,"packages":2,"weight_kg":5.0},
  {"id":"nyc_store_018","name":"New York, NY Store 18","address":"118 Broadway, New York, NY","latitude":40.72,"longitude":-74.0123,"priority":3,"estimated_service_time":15,"packages":3,"weight_kg":7.5},
  {"id":"nyc_store_019","name":"New York, NY Store 19","address":"119 Broadway, New York, NY","latitude":40.7204,"longitude":-74.01265,"priority":1,"estimated_service_time":20,"packages":4,"weight_kg":10.0},
  {"id":"nyc_store_020","name":"New York, NY Store 20","address":"120 Broadway, New York, NY","latitude":40.7208,"longitude":-74.013,"priority":2,"estimated_service_time":25,"packages":5,"weight_kg":12.5},
  {"id":"nyc_store_021","name":"New York, NY Store 21","address":"121 Broadway, New York, NY","latitude":40.7212,"longitude":-74.01335,"priority":3,"estimated_service_time":10,"packages":1,"weight_kg":2.5},
  {"id":"nyc_store_022","name":"New York, NY Store 22","address":"122 Broadway, New York, NY","latitude":40.7216,"longitude":-74.0137,"priority":1,"estimated_service_time":15,"packages":2,"weight_kg":5.0},
  {"id":"nyc_store_023","name":"New York, NY Store 23","address":"123 Broadway, New York, NY","latitude":40.722,"longitude":-74.01405,"priority":2,"estimated_service_time":20,"packages":3,"weight_kg":7.5},
  {"id":"nyc_store_024","name":"New York, NY Store 24","address":"124 Broadway, New York, NY","latitude":40.7224,"longitude":-74.0144,"priority":3,"estimated_service_time":25,"packages":4,"weight_kg":10.0},
  {"id":"nyc_store_025","name":"New York, NY Store 25","address":"125 Broadway, New York, NY","latitude":40.7228,"longitude":-74.01475,"priority":1,"estimated_service_time":10,"packages":5,"weight_kg":12.5},
  {"id":"nyc_store_026","name":"New York, NY Store 26","address":"126 Broadway, New York, NY","latitude":40.7232,"longitude":-74.0151,"priority":2,"estimated_service_time":15,"packages":1,"weight_kg":2.5},
  {"id":"nyc_store_027","name":"New York, NY Store 27","address":"127 Broadway, New York, NY","latitude":40.7236,"longitude":-74.01545,"priority":3,"estimated_service_time":20,"packages":2,"weight_kg":5.0},
  {"id":"nyc_store_028","name":"New York, NY Store 28","address":"128 Broadway, New York, NY","latitude":40.724,"longitude":-74.0158,"priority":1,"estimated_service_time":25,"packages":3,"weight_kg":7.5},
  {"id":"nyc_store_029","name":"New York, NY Store 29","address":"129 Broadway, New York, NY","latitude":40.7244,"longitude":-74.01615,"priority":2,"estimated_service_time":10,"packages":4,"weight_kg":10.0},
  {"id":"nyc_store_030","name":"New York, NY Store 30","address":"130 Broadway, New York, NY","latitude":40.7248,"longitude":-74.0165,"priority":3,"estimated_service_time":15,"packages":5,"weight_kg":12.5},
  {"id":"nyc_store_031","name":"New York, NY Store 31","address":"131 Broadway, New York, NY","latitude":40.7252,"longitude":-74.01685,"priority":1,"estimated_service_time":20,"packages":1,"weight_kg":2.5},
  {"id":"nyc_store_032","name":"New York, NY Store 32","address":"132 Broadway, New York, NY","latitude":40.7256,"longitude":-74.0172,"priority":2,"estimated_service_time":25,"packages":2,"weight_kg":5.0},
  {"id":"nyc_store_033","name":"New York, NY Store 33","address":"133 Broadway, New York, NY","latitude":40.726,"longitude":-74.01755,"priority":3,"estimated_service_time":10,"packages":3,"weight_kg":7.5},
  {"id":"nyc_store_034","name":"New York, NY Store 34","address":"134 Broadway, New York, NY","latitude":40.7264,"longitude":-74.0179,"priority":1,"estimated_service_time":15,"packages":4,"weight_kg":10.0},
  {"id":"nyc_store_035","name":"New York, NY Store 35","address":"135 Broadway, New York, NY","latitude":40.7268,"longitude":-74.01825,"priority":2,"estimated_service_time":20,"packages":5,"weight_kg":12.5},
  {"id":"nyc_store_036","name":"New York, NY Store 36","address":"136 Broadway, New York, NY","latitude":40.7272,"longitude":-74.0186,"priority":3,"estimated_service_time":25,"packages":1,"weight_kg":2.5},
  {"id":"nyc_store_037","name":"New York, NY Store 37","address":"137 Broadway, New York, NY","latitude":40.7276,"longitude":-74.01895,"priority":1,"estimated_service_time":10,"packages":2,"weight_kg":5.0},
  {"id":"nyc_store_038","name":"New York, NY Store 38","address":"138 Broadway, New York, NY","latitude":40.728,"longitude":-74.0193,"priority":2,"estimated_service_time":15,"packages":3,"weight_kg":7.5},
  {"id":"nyc_store_039","name":"New York, NY Store 39","address":"139 Broadway, New York, NY","latitude":40.7284,"longitude":-74.01965,"priority":3,"estimated_service_time":20,"packages":4,"weight_kg":10.0},
  {"id":"nyc_store_040","name":"New York, NY Store 40","address":"140 Broadway, New York, NY","latitude":40.7288,"longitude":-74.02,"priority":1,"estimated_service_time":25,"packages":5,"weight_kg":12.5},
  {"id":"nyc_store_041","name":"New York, NY Store 41","address":"141 Broadway, New York, NY","latitude":40.7292,"longitude":-74.02035,"priority":2,"estimated_service_time":10,"packages":1,"weight_kg":2.5},
  {"id":"nyc_store_042","name":"New York, NY Store 42","address":"142 Broadway, New York, NY","latitude":40.7296,"longitude":-74.0207,"priority":3,"estimated_service_time":15,"packages":2,"weight_kg":5.0},
  {"id":"nyc_store_043","name":"New York, NY Store 43","address":"143 Broadway, New York, NY","latitude":40.73,"longitude":-74.02105,"priority":1,"estimated_service_time":20,"packages":3,"weight_kg":7.5},
  {"id":"nyc_store_044","name":"New York, NY Store 44","address":"144 Broadway, New York, NY","latitude":40.7304,"longitude":-74.0214,"priority":2,"estimated_service_time":25,"packages":4,"weight_kg":10.0},
  {"id":"nyc_store_045","name":"New York, NY Store 45","address":"145 Broadway, New York, NY","latitude":40.7308,"longitude":-74.02175,"priority":3,"estimated_service_time":10,"packages":5,"weight_kg":12.5},
  {"id":"nyc_store_046","name":"New York, NY Store 46","address":"146 Broadway, New York, NY","latitude":40.7312,"longitude":-74.0221,"priority":1,"estimated_service_time":15,"packages":1,"weight_kg":2.5},
  {"id":"nyc_store_047","name":"New York, NY Store 47","address":"147 Broadway, New York, NY","latitude":40.7316,"longitude":-74.02245,"priority":2,"estimated_service_time":20,"packages":2,"weight_kg":5.0},
  {"id":"nyc_store_048","name":"New York, NY Store 48","address":"148 Broadway, New York, NY","latitude":40.732,"longitude":-74.0228,"priority":3,"estimated_service_time":25,"packages":3,"weight_kg":7.5},
  {"id":"nyc_store_049","name":"New York, NY Store 49","address":"149 Broadway, New York, NY","latitude":40.7324,"longitude":-74.02315,"priority":1,"estimated_service_time":10,"packages":4,"weight_kg":10.0},
  {"id":"nyc_store_050","name":"New York, NY Store 50","address":"150 Broadway, New York, NY","latitude":40.7328,"longitude":-74.0235,"priority":2,"estimated_service_time":15,"packages":5,"weight_kg":12.5}
]

